{
  "generated_at": "2026-03-12T05:23:03.378121+00:00",
  "regions": [
    {
      "id": "뉴캐슬-포트스테판스",
      "name_ko": "뉴캐슬/포트스테판스",
      "center": {
        "lng": 151.9336,
        "lat": -32.8094
      },
      "radius_km": 53.3,
      "place_count": 13,
      "place_ids": [
        "367b080f",
        "b6b6c774",
        "9e5bff5c",
        "fff3a505",
        "98dc14f5",
        "6b8f267d",
        "6ad0213c",
        "7c98c2bd",
        "38c0546f",
        "8072c908",
        "bfa60aeb",
        "0020c012",
        "523a0b70"
      ]
    },
    {
      "id": "블루마운틴",
      "name_ko": "블루마운틴",
      "center": {
        "lng": 150.2883,
        "lat": -33.7203
      },
      "radius_km": 27.7,
      "place_count": 12,
      "place_ids": [
        "68c6f93e",
        "04cc52a2",
        "ef2de137",
        "c7c5e692",
        "b39fd373",
        "1d375b4d",
        "c92d2048",
        "89376ce6",
        "fdef9085",
        "5808639b",
        "36dc1295",
        "1a05deb4"
      ]
    },
    {
      "id": "시드니",
      "name_ko": "시드니",
      "center": {
        "lng": 151.2375,
        "lat": -33.8364
      },
      "radius_km": 23.3,
      "place_count": 11,
      "place_ids": [
        "b484de1d",
        "a2a6451d",
        "fd81708b",
        "472d62b4",
        "034f4322",
        "010149dd",
        "b7e6c92f",
        "3e54b21c",
        "f04313c6",
        "c8f5dd58",
        "efa3e922"
      ]
    },
    {
      "id": "콥스하버",
      "name_ko": "콥스하버",
      "center": {
        "lng": 153.0339,
        "lat": -30.3269
      },
      "radius_km": 30.7,
      "place_count": 10,
      "place_ids": [
        "bbf82d69",
        "40947a39",
        "14d198ac",
        "d5fa343f",
        "59520c4f",
        "047c109a",
        "ff4c6964",
        "551ff6a1",
        "30c337cf",
        "e16a2fe5"
      ]
    },
    {
      "id": "포트맥쿼리",
      "name_ko": "포트맥쿼리",
      "center": {
        "lng": 152.8996,
        "lat": -31.4741
      },
      "radius_km": 18.9,
      "place_count": 9,
      "place_ids": [
        "c62c960b",
        "669a240e",
        "d3a4be59",
        "6c37b64f",
        "01915bd7",
        "dc92c808",
        "d2936dd7",
        "642731d5",
        "54422111"
      ]
    },
    {
      "id": "센트럴코스트",
      "name_ko": "센트럴코스트",
      "center": {
        "lng": 151.3596,
        "lat": -33.4517
      },
      "radius_km": 27.6,
      "place_count": 8,
      "place_ids": [
        "a535b048",
        "640b85a3",
        "904331b4",
        "dec35b06",
        "621b0bb4",
        "58a28bc3",
        "5dc8e4b0",
        "98c09a51"
      ]
    },
    {
      "id": "골드코스트",
      "name_ko": "골드코스트",
      "center": {
        "lng": 153.3328,
        "lat": -28.0626
      },
      "radius_km": 24.8,
      "place_count": 5,
      "place_ids": [
        "4d611b52",
        "3a3e43cf",
        "368a4e1c",
        "64847f13",
        "54678851"
      ]
    },
    {
      "id": "기타",
      "name_ko": "기타",
      "center": {
        "lng": 151.6255,
        "lat": -32.1535
      },
      "radius_km": 0,
      "place_count": 5,
      "place_ids": [
        "e64dcb8e",
        "05bd5b67",
        "c49e60e1",
        "b8c93251",
        "123aac43"
      ]
    },
    {
      "id": "포스터-해링턴",
      "name_ko": "포스터/해링턴",
      "center": {
        "lng": 152.6683,
        "lat": -31.9616
      },
      "radius_km": 27.6,
      "place_count": 3,
      "place_ids": [
        "611a9b90",
        "a5b06982",
        "d7b4e922"
      ]
    },
    {
      "id": "사우스웨스트록스-켐시",
      "name_ko": "사우스웨스트록스/켐시",
      "center": {
        "lng": 153.0606,
        "lat": -30.8859
      },
      "radius_km": 2.2,
      "place_count": 3,
      "place_ids": [
        "fa50dcb3",
        "795b5f58",
        "edbb0857"
      ]
    },
    {
      "id": "바이런베이",
      "name_ko": "바이런베이",
      "center": {
        "lng": 153.6016,
        "lat": -28.7124
      },
      "radius_km": 18.1,
      "place_count": 3,
      "place_ids": [
        "213ea17d",
        "23d43404",
        "df63cd08"
      ]
    },
    {
      "id": "야마-그래프턴",
      "name_ko": "야마/그래프턴",
      "center": {
        "lng": 153.3151,
        "lat": -29.6608
      },
      "radius_km": 25.8,
      "place_count": 2,
      "place_ids": [
        "71c9aea1",
        "7ac4516b"
      ]
    }
  ]
}